{
  "_comment": "Per-dealer coordinates from Google Places lookups, used by fetch_drive_times.js. id matches the dealer id in the dashboard's DEALERS constant.",
  "warehouses": {
    "bhiwandi":      { "lat": 19.2967, "lng": 73.0631, "name": "Bhiwandi Warehouse",      "hub_airport": "BOM" },
    "sriperumbudur": { "lat": 12.9670, "lng": 79.9434, "name": "Sriperumbudur Warehouse", "hub_airport": "MAA" }
  },
  "airports": {
    "COK": { "lat": 10.1532129, "lng": 76.3933204 },
    "MAA": { "lat": 12.9939595, "lng": 80.1706653 },
    "BLR": { "lat": 13.198909,  "lng": 77.7068926 },
    "STV": { "lat": 21.1210272, "lng": 72.7419849 },
    "PNQ": { "lat": 18.579343,  "lng": 73.9089168 },
    "VGA": { "lat": 16.5285178, "lng": 80.7976633 },
    "HYD": { "lat": 17.2402827, "lng": 78.4293580 },
    "BBI": { "lat": 20.2506821, "lng": 85.8145388 },
    "DEL": { "lat": 28.5561437, "lng": 77.0999623 },
    "CCU": { "lat": 22.653564,  "lng": 88.4450847 },
    "AMD": { "lat": 23.0763962, "lng": 72.6309997 },
    "AGR": { "lat": 27.157839,  "lng": 77.9618174 },
    "JAI": { "lat": 26.8283472, "lng": 75.8060124 },
    "BOM": { "lat": 19.0902177, "lng": 72.8628120 },
    "NAG": { "lat": 21.0901569, "lng": 79.0548086 },
    "VTZ": { "lat": 17.7283829, "lng": 83.2233872 },
    "IXC": { "lat": 30.6679559, "lng": 76.7860317 },
    "BDQ": { "lat": 22.333747,  "lng": 73.2267132 },
    "IXJ": { "lat": 32.6808804, "lng": 74.8427544 },
    "IXM": { "lat": 9.8382282,  "lng": 78.0894782 },
    "RAJ": { "lat": 22.3818371, "lng": 71.0316944 },
    "DED": { "lat": 30.1951339, "lng": 78.1920972 },
    "RPR": { "lat": 21.1859715, "lng": 81.7402786 },
    "IDR": { "lat": 22.7280036, "lng": 75.8040990 },
    "LKO": { "lat": 26.7617171, "lng": 80.8856475 },
    "ISK": { "lat": 20.1129873, "lng": 73.8941152 },
    "KLH": { "lat": 16.6645245, "lng": 74.2871072 },
    "MYQ": { "lat": 12.2310482, "lng": 76.6541862 },
    "CJB": { "lat": 11.0304324, "lng": 77.0390928 },
    "PAT": { "lat": 25.5946456, "lng": 85.0909971 }
  },
  "dealers": {
    "1":  { "code": "KL301",   "city": "Ernakulam",      "apt": "COK", "lat": 10.0367911, "lng": 76.3400341 },
    "2":  { "code": "TN101",   "city": "Chennai",        "apt": "MAA", "lat": 13.0149380, "lng": 80.2218981 },
    "3":  { "code": "KA101",   "city": "Bengaluru",      "apt": "BLR", "lat": 12.8617680, "lng": 77.6544210 },
    "4":  { "code": "GJ101",   "city": "Surat",          "apt": "STV", "lat": 21.1728480, "lng": 72.8314060 },
    "5":  { "code": "MH101",   "city": "Pune",           "apt": "PNQ", "lat": 18.5128500, "lng": 73.9750600 },
    "6":  { "code": "MH101-2", "city": "Pune",           "apt": "PNQ", "lat": 18.5065071, "lng": 73.9135221 },
    "7":  { "code": "AP102",   "city": "Vijayawada",     "apt": "VGA", "lat": 16.5087543, "lng": 80.6759488 },
    "8":  { "code": "TG101",   "city": "Hyderabad",      "apt": "HYD", "lat": 17.4789078, "lng": 78.4738022 },
    "9":  { "code": "TG101-2", "city": "Hyderabad",      "apt": "HYD", "lat": 17.4430107, "lng": 78.4772093 },
    "10": { "code": "OD102",   "city": "Bhubaneswar",    "apt": "BBI", "lat": 20.3438732, "lng": 85.8848679 },
    "11": { "code": "HR303",   "city": "Gurugram",       "apt": "DEL", "lat": 28.3867191, "lng": 76.9747657 },
    "12": { "code": "DL101",   "city": "Faridabad",      "apt": "DEL", "lat": 28.4695543, "lng": 77.3068927 },
    "13": { "code": "DL101-2", "city": "Faridabad",      "apt": "DEL", "lat": 28.4695543, "lng": 77.3068927 },
    "14": { "code": "WB301",   "city": "Kolkata",        "apt": "CCU", "lat": 22.5794666, "lng": 88.4357715 },
    "15": { "code": "GJ303",   "city": "Ahmedabad",      "apt": "AMD", "lat": 23.0581133, "lng": 72.5394513 },
    "16": { "code": "UP302",   "city": "Agra",           "apt": "AGR", "lat": 27.2285284, "lng": 78.1560619 },
    "17": { "code": "UP302-2", "city": "Noida",          "apt": "DEL", "lat": 28.5109235, "lng": 77.4038412 },
    "18": { "code": "RJ302",   "city": "Jaipur",         "apt": "JAI", "lat": 26.8340918, "lng": 75.7940607 },
    "19": { "code": "MH102",   "city": "Mumbai",         "apt": "BOM", "lat": 19.0125592, "lng": 72.8253409 },
    "20": { "code": "MH306",   "city": "Nagpur",         "apt": "NAG", "lat": 21.1339470, "lng": 79.0044973 },
    "21": { "code": "AP102-2", "city": "Vishakhapatnam", "apt": "VTZ", "lat": 17.7408819, "lng": 83.2985725 },
    "22": { "code": "HR304",   "city": "Gurugram",       "apt": "DEL", "lat": 28.4769392, "lng": 77.0942623 },
    "23": { "code": "PB301",   "city": "Ludhiana",       "apt": "IXC", "lat": 30.8886208, "lng": 75.8842656 },
    "24": { "code": "KA101-2", "city": "Bengaluru",      "apt": "BLR", "lat": 12.9631348, "lng": 77.5892179 },
    "25": { "code": "GJ102",   "city": "Vadodara",       "apt": "BDQ", "lat": 22.2626215, "lng": 73.1705873 },
    "26": { "code": "JK301",   "city": "Jammu",          "apt": "IXJ", "lat": 32.6744048, "lng": 74.8897392 },
    "27": { "code": "TN302",   "city": "Madurai",        "apt": "IXM", "lat": 9.8679986,  "lng": 78.0239746 },
    "28": { "code": "UP101",   "city": "Ghaziabad",      "apt": "DEL", "lat": 28.7117454, "lng": 77.4579028 },
    "29": { "code": "GJ103",   "city": "Rajkot",         "apt": "RAJ", "lat": 22.2453640, "lng": 70.7995619 },
    "30": { "code": "UK202",   "city": "Dehradun",       "apt": "DED", "lat": 30.3032415, "lng": 77.9902758 },
    "31": { "code": "CG301",   "city": "Raipur",         "apt": "RPR", "lat": 21.2327668, "lng": 81.5967372 },
    "32": { "code": "HR101",   "city": "Faridabad",      "apt": "DEL", "lat": 28.3974894, "lng": 77.3118327 },
    "33": { "code": "CH301",   "city": "Chandigarh",     "apt": "IXC", "lat": 30.7009984, "lng": 76.7889229 },
    "34": { "code": "IN00003", "city": "Indore",         "apt": "IDR", "lat": 22.7023344, "lng": 75.8760397 },
    "35": { "code": "UP214",   "city": "Lucknow",        "apt": "LKO", "lat": 26.8958229, "lng": 81.0859053 },
    "36": { "code": "MH308",   "city": "Nashik",         "apt": "ISK", "lat": 19.9494002, "lng": 73.7492976 },
    "37": { "code": "MH309",   "city": "Sangli",         "apt": "KLH", "lat": 16.8295142, "lng": 74.5659393 },
    "38": { "code": "MH307",   "city": "Kolhapur",       "apt": "KLH", "lat": 16.6680496, "lng": 74.2679995 },
    "39": { "code": "IN00006", "city": "Mysore",         "apt": "MYQ", "lat": 12.3275213, "lng": 76.6088775 },
    "40": { "code": "IN00009", "city": "Vijayawada",     "apt": "VGA", "lat": 16.5010931, "lng": 80.6578922 },
    "41": { "code": "IN00010", "city": "Erode",          "apt": "CJB", "lat": 11.3035205, "lng": 77.6585674 },
    "42": { "code": "IN00002", "city": "Delhi",          "apt": "DEL", "lat": 28.6400180, "lng": 77.3136450 },
    "43": { "code": "IN00012", "city": "Patna",          "apt": "PAT", "lat": 25.5827507, "lng": 85.2090121 },
    "44": { "code": "IN00008", "city": "Bengaluru",      "apt": "BLR", "lat": 13.0364484, "lng": 77.6280928 },
    "45": { "code": "IN00004", "city": "Lucknow",        "apt": "LKO", "lat": 26.7521548, "lng": 80.9087659 }
  }
}
